[{"企業名":"朝日共販株式会社","事業内容":"水産食料品の製造・販売 ちりめん、しらす、カニ、海藻","住所":"〒791-8042 愛媛県松山市南吉田町1497-1","HP":"http:\/\/www.shirasu.jp\/","lat":33.82760428,"lon":132.7097334,"原材料":["しらす","カニ"]},{"企業名":"株式会社えひめ飲料","事業内容":"みかん果汁加工事業","住所":"〒791-8006 愛媛県松山市安城寺町240-1","HP":"http:\/\/www.ehime-inryo.co.jp\/","lat":33.87291344,"lon":132.74344326,"原材料":["リンゴ","ブドウ","みかん"]},{"企業名":"四国乳業株式会社","事業内容":"乳製品","住所":"〒791-0397 愛媛県東温市南方955-1","HP":"https:\/\/www.rakuren.co.jp\/","lat":33.79475399,"lon":132.90199864,"原材料":["リンゴ","みかん","ブドウ","にんじん","キャベツ","さつまいも","アスパラガス","ブロッコリー","カボチャ","レタス","ケール","レモン"]},{"企業名":"有限会社進藤重晴商店","事業内容":"柑橘外皮を使用した砂糖漬菓子（ピール）生姜砂糖漬、しょうが湯などの製造・販売","住所":"〒799-0431 愛媛県四国中央市寒川町3797-1","HP":"http:\/\/www.miyone.com\/","lat":33.96781374,"lon":133.50354488,"原材料":["レモン","ゆず"]},{"企業名":"株式会社中温","事業内容":"主に農産物加工、瓶詰・缶詰・袋詰等製造、有機JAS対応微生物資材製造販売、栗渋ポリフェノール","住所":"〒790-0036 愛媛県松山市小栗1-2-28","HP":"https:\/\/www.chuon.co.jp\/","lat":33.8275389,"lon":132.763125,"原材料":["栗","筍"]},{"企業名":"日本食研ホールディングス株式会社","事業内容":"ブレンド調味料及び加工調理食品の製造・販売。研究開発、持株会社としてのグループ戦略立案及び各種事業の統括管理","住所":"〒799-1582 愛媛県今治市富田新港1-3","HP":"https:\/\/www.nihonshokken.co.jp\/","lat":34.04738768,"lon":133.02945851,"原材料":["ナス","大根","アスパラガス","魚"]},{"企業名":"株式会社マエダ","事業内容":"パックご飯\/雑穀の製造販売","住所":"〒798-0027 愛媛県宇和島市柿原甲1059","HP":"http:\/\/www.an-maeda.co.jp\/","lat":33.23684182,"lon":132.58111891,"原材料":["雑穀","大豆","ゴマ"]},{"企業名":"有限会社　石丸弥蔵商店","事業内容":"海産乾物問屋","住所":"〒791-8018 愛媛県松山市問屋町1−14","HP":"https:\/\/ishimaruyazo.com\/","lat":33.86277305,"lon":132.75050388,"原材料":["しらす","魚","ワカメ","えび"]},{"企業名":"株式会社あわしま堂","事業内容":"和洋生菓子の製造・販売","住所":"〒796-0295 愛媛県八幡浜市保内町川之石1-237-53","HP":"https:\/\/www.awashimado.co.jp","lat":33.4732457,"lon":132.40008971,"原材料":["大豆","小豆"]},{"企業名":"マルトモ株式会社","事業内容":"花かつお、かつおパック、削りぶし、煮干し、だしの素、めんつゆ、チルド製品（魚介加工品）、ご贈答品詰め合わせ、サプリメント、ペットフード","住所":"〒799-3192 愛媛県伊予市米湊1696","HP":"https:\/\/www.marutomo.co.jp","lat":33.75380399,"lon":132.698496,"原材料":["魚","ゴマ","大豆"]},{"企業名":"サンヨー食品株式会社［妻鳥工場］","事業内容":"冷凍食品製造及び販売、食肉の販売、貿易、魚貝類の販売、小売など","住所":"〒799-0113 愛媛県四国中央市妻鳥町４１３−１","HP":"https:\/\/www.sanyofoods.co.jp","lat":33.99538313,"lon":133.56692098,"原材料":["大豆","ゴマ","魚","肉"]},{"企業名":"四国明治株式会社（松山工場）","事業内容":"牛乳、乳製品、菓子等の製造ならびに牛乳、乳製品、菓子、栄養食品等の販売","住所":"〒791-8078　愛媛県松山市中須賀3-5-11","HP":"https:\/\/shikoku.meiji.co.jp","lat":33.86591621,"lon":132.71979594,"原材料":["大豆","リンゴ","キャベツ","にんじん","じゃがいも","たまねぎ","かぼちゃ","トウモロコシ","エビ","魚"]},{"企業名":"扇屋食品株式会社","事業内容":"小魚・いか・チーズを主軸に食品加工メーカーとして自社で商品の開発・製造をしています","住所":"〒791-3102 愛媛県伊予郡松前町北黒田５７１","HP":"https:\/\/www.ohgiya-f.co.jp","lat":33.78503155,"lon":132.7036175,"原材料":["いか","魚","ワカメ","ゴマ"]},{"企業名":"株式会社母恵夢本舗　本社工場","事業内容":"瀬戸内銘菓 母恵夢","住所":"〒794-0037 今治市黄金町5丁目2-10","HP":"https:\/\/www.poemehonpo.co.jp","lat":34.05961811,"lon":133.00717283,"原材料":["大豆","小豆","はちみつ"]},{"企業名":"株式会社南予ビージョイ","事業内容":"水産養殖用の各飼料(餌)販売、活魚・鮮魚・稚魚・中間魚の販売、水産物の加工・販売、食肉・惣菜類の販売","住所":"〒798-0006 愛媛県宇和島市弁天町２丁目１−３","HP":"https:\/\/nanyo-bejoy.co.jp","lat":33.22334239,"lon":132.55453788,"原材料":["魚","みかん"]},{"企業名":"株式会社オカベ　五色浜工場","事業内容":"魚介加工品　佃煮・浜焼　チーズ加工品　OEM商品","住所":"〒799-3111　愛媛県伊予市下吾川1693-11","HP":"https:\/\/www.okabe-group.com","lat":33.76606941,"lon":132.69953193,"原材料":["魚","ワカメ","ゴマ","大豆","エビ"]},{"企業名":"株式会社いのすや","事業内容":"缶詰又はビン詰め　菓子　惣菜　清涼飲料　営業許可\n農産物加工　主に柚子、他柑橘搾汁と外皮加工\n各種フルーツ缶詰、フルーツピューレソース","住所":"〒798－1332　愛媛県北宇和郡鬼北町大字出目18番地","HP":"https:\/\/inosuya.co.jp","lat":33.25497711,"lon":132.69528835,"原材料":["ゆず","桃","キウイ"]},{"企業名":"愛媛果汁食品株式会社","事業内容":"農産物加工業","住所":"〒792-0826 愛媛県新居浜市喜光地町1丁目11-9","HP":"https:\/\/www.ehimekj.com","lat":33.93629206,"lon":133.30168449,"原材料":["ゆず","レモン","みかん","かぼちゃ","いちご"]},{"企業名":"株式会社山口園芸","事業内容":"キュウリやトマト、キャベツ、タマネギなど\nさまざまな品種を販売","住所":"〒798-3312　愛媛県宇和島市津島町山財4925","HP":"http:\/\/www.e-nae.co.jp","lat":33.11767228,"lon":132.56795269,"原材料":["キュウリ","トマト","キャベツ","たまねぎ"]},{"企業名":"米田青果食品株式会社　本社工場","事業内容":"1.業務用ビン・缶詰・袋詰・の製造・販売業\n2.青果物流通業","住所":"〒799-2651　愛媛県松山市堀江町甲200-1","HP":"https:\/\/www.yoneda-seika.co.jp","lat":33.89798048,"lon":132.74340731,"原材料":["栗","みかん"]},{"企業名":"増永食品株式会社","事業内容":"ドライ製品 ミックス製品 ロール製品 小魚製品 焼物製品 寒梅粉製品（ノンフライ）ナッツ・ココナッツ製品","住所":"〒791－3131 愛媛県伊予郡松前町北川原2028 - 1","HP":"https:\/\/www.masunaga-s.com","lat":33.79653276,"lon":132.69418765,"原材料":["魚","エビ","大豆"]},{"企業名":"株式会社松山丸三","事業内容":"・和・洋菓子・パン・外食業務用原材料の製造及び販売\n・包装資材、環境衛生機器の企画デザイン及び販売\n・製菓製パン用機械の製造及び販売、メンテナンス\n・厨房機器・器具の販売・メンテナンス\n・ソフトウェアの開発及び販売\n・店舗デザイン、施工\n・その他関連する一切の業務","住所":"\n〒790-0003　愛媛県松山市三番町5丁目8番13号","HP":"https:\/\/www.m-marusan.co.jp","lat":33.83830144,"lon":132.76270009,"原材料":["大豆","肉","はちみつ"]},{"企業名":"株式会社乃万青果","事業内容":"柑橘の集荷、撰果荷造、販売（みかん撰果場）\nその他の青果の集荷・販売\n柑橘を主とした加工品の製造・販売","住所":"〒794-0074 愛媛県今治市神宮８４４−５","HP":"https:\/\/www.kajuen.co.jp","lat":34.05265442,"lon":132.95467049,"原材料":["みかん","スイカ","メロン"]},{"企業名":"株式会社ジンノ","事業内容":"海産物、ナッツ、菓子等の製造加工卸売業","住所":"〒791-3131 愛媛県伊予郡松前町大字北川原2043番地2","HP":"http:\/\/www.foods.jinno.org","lat":33.79889077,"lon":132.69291553,"原材料":["魚","バナナ"]},{"企業名":"株式会社アール・シー・フードパック","事業内容":"缶詰、レトルトパウチ食品製造・販売","住所":"〒797-0015　愛媛県西予市宇和町卯之町2丁目575番地","HP":"https:\/\/www.rc-foodpack.co.jp","lat":33.36428587,"lon":132.5086481,"原材料":["肉","豆"]},{"企業名":"株式会社地域法人無茶々園","事業内容":"農林水産物の加工及び販売\n\n柑橘（温州みかん、伊予柑、ポンカン、ネーブル、\n甘夏、河内晩柑、レモン等）、野菜（ジャガイモ、\nニンジン、タマネギ、カボチャ等）、柑橘加工品\n（柑橘ジュース、マーマレード、ゼリー等）、加工\n食品（かんそう野菜、かんそう果物、はちみつ等）、\n海産物、真珠、コスメ、雑貨　等","住所":"〒797-0113　愛媛県西予市明浜町狩浜2-1350","HP":"https:\/\/www.muchachaen.jp","lat":33.32050431,"lon":132.46630553,"原材料":["みかん","じゃがいも","米","魚"]},{"企業名":"はぎの食品株式会社","事業内容":"海産物、加工食品の製造・販売\n観光土産品の製造・販売\n各種OEM商品企画・製造","住所":"〒791-3151 愛媛県伊予郡松前町東古泉３３３","HP":"https:\/\/haginoshokuhin.co.jp","lat":33.7857126,"lon":132.72210769,"原材料":["エビ","カキ","ホタテ","カニ","魚"]},{"企業名":"株式会社城川ファクトリー　城川自然農場","事業内容":"農産物加工、ハム・ソーセージ製造","住所":"〒797-1717 愛媛県西予市城川町下相１１８８","HP":"https:\/\/www.shirokawa.jp","lat":33.38160537,"lon":132.74801321,"原材料":["肉","栗"]},{"企業名":"愛媛水耕食品株式会社","事業内容":"さまざまなバリェーションのもやし商品を開発し、また、自然食品のもやしを\nさらに安心かつおいしいもやしに育てることで、出来るだけ多くの人にもやしの味を再発見していただき、\n健康になっていただくことを、当社の目標としております","住所":"〒791-1112 愛媛県松山市南高井町1972-3","HP":"https:\/\/ehime-suikou.jp","lat":33.78298921,"lon":132.80352433,"原材料":["緑豆","黒豆"]},{"企業名":"株式会社マエダ","事業内容":"食品製造販売","住所":"〒798-0027 愛媛県宇和島市柿原1059","HP":"https:\/\/an-maeda.co.jp","lat":33.23684182,"lon":132.58111891,"原材料":["小麦粉","大豆","米"]},{"企業名":"株式会社昆布森","事業内容":"海藻加工業","住所":"〒791-3132 愛媛県伊予郡松前町西高柳251番地","HP":"https:\/\/www.konbumori.co.jp","lat":33.80394347,"lon":132.71621611,"原材料":["ワカメ","魚"]},{"企業名":"有限会社宇都宮物産","事業内容":"みかん","住所":"〒797-0045　愛媛県西予市宇和町坂戸６８３番地","HP":"https:\/\/maruwa-fruit.co.jp","lat":33.39583161,"lon":132.50813334,"原材料":["リンゴ","ブドウ","みかん","スイカ"]},{"企業名":"株式会社ＩＳフーズ","事業内容":"水産物の製造販売","住所":"〒790-0822　愛媛県松山市高砂町2-1-1","HP":"https:\/\/www.isfoods.co.jp","lat":33.84941389,"lon":132.76238075,"原材料":["魚","ネギ"]},{"企業名":"株式会社後藤商店","事業内容":"味噌・おかずみそ・味噌加工品・こうじ類の製造・販売業務\nメインブランド「松山みそ」を中心に愛媛県の伝統的な「麦みそ」「合わせみそ」\nを製造・販売しています。","住所":"〒790-0932　愛媛県松山市東石井４丁目１７－２５","HP":"http:\/\/gotoshouten.co.jp\/","lat":33.81351342,"lon":132.78016473,"原材料":["大豆","米"]},{"企業名":"株式会社中田水産","事業内容":"水産業・養殖・水産物加工・販売","住所":"〒796-0312 愛媛県西宇和郡伊方町川永田536-1","HP":"https:\/\/nakata-suisan.com","lat":33.48205701,"lon":132.34703503,"原材料":["魚","しらす","ワカメ"]},{"企業名":"有限会社ワールド・ファーマーズ","事業内容":"みかん","住所":"〒799-3752 愛媛県宇和島市吉田町河内甲1471","HP":"http:\/\/world-farmers.com","lat":33.28796478,"lon":132.50049819,"原材料":["みかん","米"]},{"企業名":"株式会社上野昆布","事業内容":"海産物卸、農産物卸、\n食品製造卸","住所":"〒791-8026 愛媛県松山市山西町８９９","HP":"http:\/\/www.uenokonbu.com","lat":33.85292073,"lon":132.72188753,"原材料":["海苔","キウイ","みかん","筍","ラズベリー","栗","トマト","レモン","さつまいも","かぼちゃ"]},{"企業名":"有限会社篠﨑ベーカリー","事業内容":"パン作り","住所":"〒799-3114　愛媛県伊予市灘町137","HP":"http:\/\/shinopan.info","lat":33.75891183,"lon":132.70173173,"原材料":["パン","小麦粉"]},{"企業名":"二宮醸造株式会社","事業内容":"しょうゆ・みそ・その他調味料の製造加工販売","住所":"〒791-1201 愛媛県上浮穴郡久万高原町久万４０８","HP":"https:\/\/www.ninomiya-jyozo.jp","lat":33.65889912,"lon":132.90149829,"原材料":["小麦粉","大豆","玉ねぎ"]},{"企業名":"株式会社媛囃子","事業内容":"媛囃子は、愛媛県産のはだか麦や栗を主原料とし、\n原料を活かして豊かな香味を引き出すことを目指した\n酒造りを心がけております","住所":"〒797-1716 愛媛県西予市城川町魚成4598","HP":"https:\/\/himebayashi.jp","lat":33.37634132,"lon":132.71494135,"原材料":["小麦粉","栗","ゆず"]}]
