[
    {
        "企業名": "朝日共販株式会社",
        "事業内容": "水産食料品の製造・販売 ちりめん、しらす、カニ、海藻",
        "住所": "〒791-8042 愛媛県松山市南吉田町1497-1",
        "HP": "http://www.shirasu.jp/",
        "lat": 33.82760428,
        "lon": 132.7097334
    },
    {
        "企業名": "株式会社えひめ飲料",
        "事業内容": "みかん果汁加工事業",
        "住所": "〒791-8006 愛媛県松山市安城寺町240-1",
        "HP": "http://www.ehime-inryo.co.jp/",
        "lat": 33.87291344,
        "lon": 132.74344326
    },
    {
        "企業名": "株式会社キシモト",
        "事業内容": "干物製品の製造と卸売り",
        "住所": "〒791-0311 愛媛県東温市則之内甲693",
        "HP": "http://www.kishimoto-web.com/",
        "lat": 33.794249,
        "lon": 132.947544
    },
    {
        "企業名": "キョクヨーフーズ株式会社",
        "事業内容": "カニ風味かまぼこ及び水産調理品の製造",
        "住所": "〒798-2102 愛媛県北宇和郡松野町延野々830番地",
        "HP": "https://www.kyokuyofoods.co.jp/",
        "lat": 33.2402984,
        "lon": 132.71218719
    },
    {
        "企業名": "株式会社小池養蜂園",
        "事業内容": "養蜂と蜜の生産",
        "住所": "〒799-2662 愛媛県松山市太山寺町1852",
        "HP": "http://koikeyouhou.com/",
        "lat": 33.88449476,
        "lon": 132.72150403
    },
    {
        "企業名": "四国乳業株式会社",
        "事業内容": "乳製品",
        "住所": "〒791-0397 愛媛県東温市南方955-1",
        "HP": "https://www.rakuren.co.jp/",
        "lat": 33.79475399,
        "lon": 132.90199864
    },
    {
        "企業名": "有限会社進藤重晴商店",
        "事業内容": "柑橘外皮を使用した砂糖漬菓子（ピール）生姜砂糖漬、しょうが湯などの製造・販売",
        "住所": "〒799-0431 愛媛県四国中央市寒川町3797-1",
        "HP": "http://www.miyone.com/",
        "lat": 33.96781374,
        "lon": 133.50354488
    },
    {
        "企業名": "仙味エキス株式会社",
        "事業内容": "エキス調味料及び機能性食品素材の製造・販売",
        "住所": "〒795-0021 愛媛県大洲市平野町野田779-2",
        "HP": "http://www.senmiekisu.co.jp/",
        "lat": 33.47572871,
        "lon": 132.5042463
    },
    {
        "企業名": "株式会社中温",
        "事業内容": "主に農産物加工、瓶詰・缶詰・袋詰等製造、有機JAS対応微生物資材製造販売、栗渋ポリフェノール",
        "住所": "〒790-0036 愛媛県松山市小栗1-2-28",
        "HP": "https://www.chuon.co.jp/",
        "lat": 33.8275389,
        "lon": 132.763125
    },
    {
        "企業名": "日本食研ホールディングス株式会社",
        "事業内容": "ブレンド調味料及び加工調理食品の製造・販売。研究開発、持株会社としてのグループ戦略立案及び各種事業の統括管理",
        "住所": "〒799-1582 愛媛県今治市富田新港1-3",
        "HP": "https://www.nihonshokken.co.jp/",
        "lat": 34.04738768,
        "lon": 133.02945851
    },
    {
        "企業名": "八水蒲鉾株式会社",
        "事業内容": "魚肉練り製品・惣菜・水産加工品の製造販売",
        "住所": "〒796-0201 愛媛県八幡浜市保内町川之石1-242-4",
        "HP": "https://www.hassui.jp/",
        "lat": 33.48123931,
        "lon": 132.39736458
    },
    {
        "企業名": "株式会社マエダ",
        "事業内容": "パックご飯/雑穀の製造販売",
        "住所": "〒798-0027 愛媛県宇和島市柿原甲1059",
        "HP": "http://www.an-maeda.co.jp/",
        "lat": 33.23684182,
        "lon": 132.58111891
    },
    {
        "企業名": "有限会社松下海産",
        "事業内容": "水産物の加工・販売",
        "住所": "〒797-0112 愛媛県西予市明浜町渡江1097",
        "HP": "なし",
        "lat": 33.31576097,
        "lon": 132.4824988
    },
    {
        "企業名": "マルトモ株式会社",
        "事業内容": "花かつお、かつおパック、削りぶし、煮干し、だしの素、めんつゆ、チルド製品（魚介加工品）、ご贈答品詰め合わせ、サプリメント、ペットフード",
        "住所": "〒799-3192 愛媛県伊予市米湊1696番地",
        "HP": "http://www.marutomo.co.jp/",
        "lat": 33.75380399,
        "lon": 132.698496
    },
    {
        "企業名": "有限会社　マキフーズ",
        "事業内容": "惣菜小売り、飲食業、惣菜製造業",
        "住所": "〒791-0216 愛媛県東温市野田3-8-6",
        "HP": "https://makifoods.jp/",
        "lat": 33.79437993,
        "lon": 132.83525781
    },
    {
        "企業名": "ニッシン･グルメビーフ株式会社　松山第一工場",
        "事業内容": "食肉の生産加工から販売",
        "住所": "〒799-2661 愛媛県松山市勝岡町1163番13",
        "HP": "http://www.n-g-beef.co.jp/",
        "lat": 33.90363813,
        "lon": 132.72554293
    },
    {
        "企業名": "ニッシン･グルメビーフ株式会社　松山第二工場",
        "事業内容": "食肉の生産加工から販売",
        "住所": "〒799-2661 愛媛県松山市勝岡町262番",
        "HP": "http://www.n-g-beef.co.jp/",
        "lat": 33.902191,
        "lon": 132.72451526
    },
    {
        "企業名": "愛興食品株式会社",
        "事業内容": "冷凍食品、食肉加工品、惣菜半製品",
        "住所": "〒791-8015 愛媛県松山市中央２丁目４５",
        "HP": "http://aikofoods.co.jp/",
        "lat": 33.85490994,
        "lon": 132.74584882
    },
    {
        "企業名": "有限会社　石丸弥蔵商店",
        "事業内容": "海産乾物問屋",
        "住所": "〒791-8018 愛媛県松山市問屋町1−14",
        "HP": "https://ishimaruyazo.com/",
        "lat": 33.86277305,
        "lon": 132.75050388
    },
    {
        "企業名": "株式会社三幸松山",
        "事業内容": "海産物・農産物・加工食品の製造・販売",
        "住所": "〒799-2655 愛媛県松山市馬木町955-1",
        "HP": "https://w-sanko.co.jp/",
        "lat": 33.89909417,
        "lon": 132.73778018
    },
    {
        "企業名": "株式会社フジデリカ・クオリティ",
        "事業内容": "弁当・お寿司・おむすび・サンドイッチ・麺・惣菜・サラダの製造",
        "住所": "〒793-0003 愛媛県西条市ひうち字西ひうち3-12",
        "HP": "https://www.fujidelica.com",
        "lat": 33.93840019,
        "lon": 133.17986098
    },
    {
        "企業名": "株式会社あわしま堂",
        "事業内容": "和洋生菓子の製造・販売",
        "住所": "〒796-0295 愛媛県八幡浜市保内町川之石1-237-53 ",
        "HP": "https://www.awashimado.co.jp",
        "lat": 33.4732457,
        "lon": 132.40008971
    },
    {
        "企業名": "日本食研製造株式会社",
        "事業内容": "ブレンド調味料（液体・粉体）、レトルト食品、ハム・ソーセージ、その他加工調理食品の販売、研究開発及び持株会社としてのグループ戦略立案、各種事業会社の統括管理",
        "住所": "〒799-1582 愛媛県今治市富田新港一丁目3番地",
        "HP": "https://www.nihonshokken.co.jp",
        "lat": 34.04738768,
        "lon": 133.02945851
    },
    {
        "企業名": "ヤマキ産業株式会社（食料品加工）",
        "事業内容": "食料品の製造・販売",
        "住所": "〒799-3111 愛媛県伊予市下吾川字北西原1966",
        "HP": "https://www.yamaki.co.jp",
        "lat": 33.77604912,
        "lon": 132.70307321
    },
    {
        "企業名": "ヤマキフーズ株式会社（総合調味料製造販売）",
        "事業内容": "食料品の製造・販売",
        "住所": "〒791-3143 愛媛県伊予郡松前町大字大間235",
        "HP": "https://www.yamaki.co.jp",
        "lat": 33.79754737,
        "lon": 132.74173659
    },
    {
        "企業名": "マルトモ株式会社",
        "事業内容": "花かつお、かつおパック、削りぶし、煮干し、だしの素、めんつゆ、チルド製品（魚介加工品）、ご贈答品詰め合わせ、サプリメント、ペットフード",
        "住所": "〒799-3192 愛媛県伊予市米湊1696",
        "HP": "https://www.marutomo.co.jp",
        "lat": 33.75380399,
        "lon": 132.698496
    },
    {
        "企業名": "サンヨー食品株式会社［妻鳥工場］ ",
        "事業内容": "冷凍食品製造及び販売、食肉の販売、貿易、魚貝類の販売、小売など",
        "住所": "〒799-0113 愛媛県四国中央市妻鳥町４１３−１",
        "HP": "https://www.sanyofoods.co.jp",
        "lat": 33.99538313,
        "lon": 133.56692098
    },
    {
        "企業名": "サンヨー食品株式会社［新居浜工場］",
        "事業内容": "冷凍食品製造及び販売、食肉の販売、貿易、魚貝類の販売、小売など",
        "住所": "〒792-0896 愛媛県新居浜市阿島１丁目６−７２",
        "HP": "https://www.sanyofoods.co.jp",
        "lat": 33.98107836,
        "lon": 133.35228245
    },
    {
        "企業名": "株式会社クック・チャム四国",
        "事業内容": "",
        "住所": "〒792-0802　愛媛県新居浜市新須賀町2-6-16",
        "HP": "https://cookchumshikoku.com",
        "lat": 33.96922123,
        "lon": 133.28767833
    },
    {
        "企業名": "株式会社四国シキシマパン",
        "事業内容": "パン・菓子類の製造・販売",
        "住所": "〒791-2141 愛媛県伊予郡砥部町岩谷口110番地",
        "HP": "https://www.pasconet.co.jp/corporate/network/",
        "lat": 33.73695299,
        "lon": 132.797737
    },
    {
        "企業名": "四国明治株式会社（松山工場）",
        "事業内容": "牛乳、乳製品、菓子等の製造ならびに牛乳、乳製品、菓子、栄養食品等の販売",
        "住所": "〒791-8078　愛媛県松山市中須賀3-5-11",
        "HP": "https://shikoku.meiji.co.jp",
        "lat": 33.86591621,
        "lon": 132.71979594
    },
    {
        "企業名": "株式会社ハタダ",
        "事業内容": "\t和・洋菓子 企画・製造・販売、喫茶・物産販売",
        "住所": "〒792-0856 愛媛県新居浜市船木甲2131番地",
        "HP": "https://www.hatada.co.jp",
        "lat": 33.94313918,
        "lon": 133.33907781
    },
    {
        "企業名": "扇屋食品株式会社",
        "事業内容": "小魚・いか・チーズを主軸に食品加工メーカーとして自社で商品の開発・製造をしています",
        "住所": "〒791-3102 愛媛県伊予郡松前町北黒田５７１",
        "HP": "https://www.ohgiya-f.co.jp",
        "lat": 33.78503155,
        "lon": 132.7036175
    },
    {
        "企業名": "株式会社母恵夢本舗　本社工場",
        "事業内容": "瀬戸内銘菓 母恵夢",
        "住所": "〒794-0037 今治市黄金町5丁目2-10",
        "HP": "https://www.poemehonpo.co.jp",
        "lat": 34.05961811,
        "lon": 133.00717283
    },
    {
        "企業名": "株式会社母恵夢本舗　東門工場",
        "事業内容": "瀬戸内銘菓 母恵夢",
        "住所": "〒794-0033 今治市東門町6丁目2-32",
        "HP": "https://www.poemehonpo.co.jp",
        "lat": 34.06050489,
        "lon": 133.01665471
    },
    {
        "企業名": "株式会社母恵夢本舗　桜井工場",
        "事業内容": "瀬戸内銘菓 母恵夢",
        "住所": "〒799-1521 今治市古国分1丁目3-46",
        "HP": "https://www.poemehonpo.co.jp",
        "lat": 34.03491698,
        "lon": 133.03534948
    },
    {
        "企業名": "株式会社母恵夢本舗　今治東工場",
        "事業内容": "瀬戸内銘菓 母恵夢",
        "住所": "〒799-1522 今治市桜井3丁目5-60",
        "HP": "https://www.poemehonpo.co.jp",
        "lat": 34.02037133,
        "lon": 133.03508839
    },
    {
        "企業名": "ベルグアース株式会社",
        "事業内容": "野菜苗の生産販売・農作物の仕入販売・農業資材の仕入販売",
        "住所": "〒798-3361　愛媛県宇和島市津島町北灘甲88-1",
        "HP": "https://bergearth.co.jp",
        "lat": 33.14118378,
        "lon": 132.49899009
    },
    {
        "企業名": "株式会社山田屋",
        "事業内容": "和菓子の製造販売",
        "住所": "〒799-2421 愛媛県松山市正岡神田２５１",
        "HP": "https://yamadayamanju.jp/",
        "lat": 33.96995078,
        "lon": 132.80552722
    },
    {
        "企業名": "にくぶき株式会社",
        "事業内容": "食肉卸業、飲食業、小売業",
        "住所": "〒793-0027 愛媛県西条市朔日市８５１−４",
        "HP": "https://nikubuki.co.jp",
        "lat": 33.93163996,
        "lon": 133.18753542
    },
    {
        "企業名": "株式会社ビージョイ",
        "事業内容": "食肉全般・食肉加工品販売、農場経営",
        "住所": "〒791-0244　愛媛県松山市水泥町468番1",
        "HP": "http://www.bejoy.jp",
        "lat": 33.8025709,
        "lon": 132.82237787
    },
    {
        "企業名": "大祐漁業株式会社",
        "事業内容": "漁業",
        "住所": "〒798-4125 愛媛県南宇和郡愛南町中浦６８５",
        "HP": "https://taiyugyogyou.jbplt.jp",
        "lat": 32.97067496,
        "lon": 132.49857737
    },
    {
        "企業名": "伯方塩業株式会社　伯方工場",
        "事業内容": "塩の製造及び販売",
        "住所": "〒794-2305 愛媛県今治市伯方町木浦甲841",
        "HP": "https://www.hakatanoshio.co.jp",
        "lat": 34.20798836,
        "lon": 133.11306973
    },
    {
        "企業名": "伯方塩業株式会社　大三島工場",
        "事業内容": "塩の製造及び販売",
        "住所": "〒794-1305 愛媛県今治市大三島町台（うてな）32",
        "HP": "https://www.hakatanoshio.co.jp",
        "lat": 34.24065183,
        "lon": 132.99374332
    },
    {
        "企業名": "ルナ物産株式会社",
        "事業内容": "乳製品及びデザート食品の製造・販売",
        "住所": "〒791-1112  愛媛県松山市南高井町1577",
        "HP": "https://www.lunabussan.co.jp",
        "lat": 33.79452693,
        "lon": 132.80089089
    },
    {
        "企業名": "株式会社南予ビージョイ",
        "事業内容": "水産養殖用の各飼料(餌)販売、活魚・鮮魚・稚魚・中間魚の販売、水産物の加工・販売、食肉・惣菜類の販売",
        "住所": "〒798-0006 愛媛県宇和島市弁天町２丁目１−３",
        "HP": "https://nanyo-bejoy.co.jp",
        "lat": 33.22334239,
        "lon": 132.55453788
    },
    {
        "企業名": "伊勢丸食品株式会社　",
        "事業内容": "食品製造業（冷凍食品）",
        "住所": "〒799-0101　愛媛県四国中央市川之江町4087-6",
        "HP": "http://www.isemaru.co.jp",
        "lat": 34.01401367,
        "lon": 133.56328776
    },
    {
        "企業名": "株式会社ダイニチ　愛南事業所",
        "事業内容": "生餌等、飼料の製造販売\n凍結 ・ 倉庫作業の受託",
        "住所": "〒798-4110　愛媛県南宇和郡愛南町御荘平城 1番地7",
        "HP": "https://www.dainiti.co.jp",
        "lat": 32.97028047,
        "lon": 132.54350545
    },
    {
        "企業名": "株式会社ダイチクフーズ",
        "事業内容": "食肉製品加工・製造販売",
        "住所": "〒799-0101 愛媛県四国中央市川之江町666-1",
        "HP": "https://daichiku-f.co.jp",
        "lat": 34.00747573,
        "lon": 133.56629589
    },
    {
        "企業名": "株式会社オカベ　五色浜工場",
        "事業内容": "魚介加工品　佃煮・浜焼　チーズ加工品　OEM商品",
        "住所": "〒799-3111　愛媛県伊予市下吾川1693-11",
        "HP": "https://www.okabe-group.com",
        "lat": 33.76606941,
        "lon": 132.69953193
    },
    {
        "企業名": "イヨスイ株式会社",
        "事業内容": "魚介類、種苗、飼料の輸出入及び販売・ 冷凍冷蔵・飼料製造・水産加工・通関業・船舶代理・酒類販売業",
        "住所": "〒798-0003 愛媛県宇和島市住吉町３丁目１−８",
        "HP": "https://iyosui.co.jp",
        "lat": 33.22815295,
        "lon": 132.55230756
    },
    {
        "企業名": "株式会社ヨンキュウ",
        "事業内容": "鮮魚販売、餌料・飼料販売、養殖用稚魚の生産・販売",
        "住所": "〒798-8691　愛媛県宇和島市築地町2丁目318番地235",
        "HP": "http://www.yonkyu.co.jp",
        "lat": 33.22595592,
        "lon": 132.5518437
    },
    {
        "企業名": "株式会社いのすや",
        "事業内容": "缶詰又はビン詰め　菓子　惣菜　清涼飲料　営業許可\n農産物加工　主に柚子、他柑橘搾汁と外皮加工\n各種フルーツ缶詰、フルーツピューレソース",
        "住所": "〒798－1332　愛媛県北宇和郡鬼北町大字出目18番地",
        "HP": "https://inosuya.co.jp",
        "lat": 33.25497711,
        "lon": 132.69528835
    },
    {
        "企業名": "オレンジベイフーズ株式会社",
        "事業内容": "ハンバーガーのパティ等の製造",
        "住所": "〒796-0202　愛媛県八幡浜市保内町宮内1-289-1",
        "HP": "https://obfoods.co.jp",
        "lat": 33.48349483,
        "lon": 132.40315028
    },
    {
        "企業名": "愛媛果汁食品株式会社",
        "事業内容": "農産物加工業",
        "住所": "〒792-0826 愛媛県新居浜市喜光地町1丁目11-9",
        "HP": "https://www.ehimekj.com",
        "lat": 33.93629206,
        "lon": 133.30168449
    },
    {
        "企業名": "株式会社山口園芸",
        "事業内容": "キュウリやトマト、キャベツ、タマネギなど\nさまざまな品種を販売",
        "住所": "〒798-3312　愛媛県宇和島市津島町山財4925",
        "HP": "http://www.e-nae.co.jp",
        "lat": 33.11767228,
        "lon": 132.56795269
    },
    {
        "企業名": "米田青果食品株式会社　本社工場",
        "事業内容": "1.業務用ビン・缶詰・袋詰・の製造・販売業\n2.青果物流通業",
        "住所": "〒799-2651　愛媛県松山市堀江町甲200-1",
        "HP": "https://www.yoneda-seika.co.jp",
        "lat": 33.89798048,
        "lon": 132.74340731
    },
    {
        "企業名": "米田青果食品株式会社　第二工場",
        "事業内容": "1.業務用ビン・缶詰・袋詰・の製造・販売業\n2.青果物流通業",
        "住所": "〒799-2651　愛媛県松山市堀江町甲211-1",
        "HP": "https://www.yoneda-seika.co.jp",
        "lat": 33.89808046,
        "lon": 132.74254352
    },
    {
        "企業名": "サンタ株式会社",
        "事業内容": "アイスクリーム類・乳製品類・菓子の製造・氷雪の製造",
        "住所": "\t〒791-3194　愛媛県伊予郡松前町北川原1205-1",
        "HP": "https://e-santa.co.jp",
        "lat": 33.79901581,
        "lon": 132.69445146
    },
    {
        "企業名": "秀長水産株式会社",
        "事業内容": "水産業（鮮魚販売、活魚販売、水産加工原料品・製造品販売、加工製造、養殖種苗販売、モイストペレット、餌料・飼料製造販売、貿易事業）",
        "住所": "〒798-0005 愛媛県宇和島市築地町２丁目６−２４",
        "HP": "http://www.hidecho.co.jp",
        "lat": 33.22539207,
        "lon": 132.55159094
    },
    {
        "企業名": "有限会社昭和水産",
        "事業内容": "農林水産大臣許可沖合底曳網漁業、鮮魚及び水産物加工品の製造・販売事業",
        "住所": "〒796-0001 愛媛県八幡浜市向灘1250",
        "HP": "https://www.uwakai.com",
        "lat": 33.46187796,
        "lon": 132.41663622
    },
    {
        "企業名": "有限会社太陽ファーム",
        "事業内容": "養豚業",
        "住所": "〒796-0907 愛媛県西予市三瓶町朝立7-122-1",
        "HP": "http://www.taiyofarm.com",
        "lat": 33.38121766,
        "lon": 132.42397411
    },
    {
        "企業名": "増永食品株式会社",
        "事業内容": "ドライ製品 ミックス製品 ロール製品 小魚製品 焼物製品 寒梅粉製品（ノンフライ）ナッツ・ココナッツ製品",
        "住所": "〒791－3131 愛媛県伊予郡松前町北川原2028 - 1",
        "HP": "https://www.masunaga-s.com",
        "lat": 33.79653276,
        "lon": 132.69418765
    },
    {
        "企業名": "愛麺株式会社",
        "事業内容": "麺類を主体とした食品（調理麺・袋ゆで麺・冷凍麺・半生麺）",
        "住所": "〒791-8036 愛媛県松山市高岡町８１−１",
        "HP": "https://www.aimen.jp",
        "lat": 33.82875712,
        "lon": 132.7261065
    },
    {
        "企業名": "森松水産冷凍株式会社",
        "事業内容": "養殖魚・一般魚介類・冷凍品（卸売、加工、輸出）",
        "住所": "\t〒794-0032　愛媛県今治市天保山町5丁目2-20",
        "HP": "https://rumijapan.jp",
        "lat": 34.06280186,
        "lon": 133.01676302
    },
    {
        "企業名": "ピーコックフーズ株式会社",
        "事業内容": "食肉加工業",
        "住所": "〒793-0042　愛媛県西条市喜多川795-1",
        "HP": "https://peacock-f.co.jp",
        "lat": 33.92446514,
        "lon": 133.17000327
    },
    {
        "企業名": "株式会社松山丸三",
        "事業内容": "・和・洋菓子・パン・外食業務用原材料の製造及び販売\n・包装資材、環境衛生機器の企画デザイン及び販売\n・製菓製パン用機械の製造及び販売、メンテナンス\n・厨房機器・器具の販売・メンテナンス\n・ソフトウェアの開発及び販売\n・店舗デザイン、施工\n・その他関連する一切の業務",
        "住所": "\n〒790-0003　愛媛県松山市三番町5丁目8番13号",
        "HP": "https://www.m-marusan.co.jp",
        "lat": 33.83830144,
        "lon": 132.76270009
    },
    {
        "企業名": "辻水産株式会社",
        "事業内容": "魚類（種苗・鮮魚・活魚・魚加工品）の販売、生エサ・EP（エクストルーデッドペレット）の販売、MP（モイストペレット）の製造・販売",
        "住所": "〒798-0003 愛媛県宇和島市住吉町3丁目1番1号",
        "HP": "https://www.tsujisuisan.co.jp",
        "lat": 33.22793357,
        "lon": 132.55346301
    },
    {
        "企業名": "株式会社あいさと",
        "事業内容": "観光土産品卸",
        "住所": "〒791-1121 愛媛県松山市中野町甲97-3",
        "HP": "https://aisato.co.jp",
        "lat": 33.77792898,
        "lon": 132.83377497
    },
    {
        "企業名": "株式会社コービスプロダクト",
        "事業内容": "食品製造加工",
        "住所": "〒791-8016 愛媛県松山市久万ノ台１９３−１",
        "HP": "https://cmnctpt93.jbplt.jp",
        "lat": 33.85783193,
        "lon": 132.74956234
    },
    {
        "企業名": "株式会社今治デパート",
        "事業内容": "食品スーパー事業",
        "住所": "〒794-0811 愛媛県今治市南高下町１丁目４−３",
        "HP": "http://imadepa.net",
        "lat": 34.05329456,
        "lon": 133.01549924
    },
    {
        "企業名": "阿川食品株式会社 馬木工場",
        "事業内容": "小魚乾製品　　ロール製品　　炙り製品　　たこ製品　　佃煮製品\n\n貝柱　　海藻類　　缶詰製品",
        "住所": "〒799-2655 愛媛県松山市馬木町９５７−１",
        "HP": "https://agawa-foods.co.jp",
        "lat": 33.89924692,
        "lon": 132.73719135
    },
    {
        "企業名": "愛媛飼料産業株式会社 鶏卵事業部",
        "事業内容": "飼料販売、鶏卵販売\n農場経営（養鶏、養豚）\n不動産の斡旋",
        "住所": "〒791-1112 松山市南高井町1821番",
        "HP": "https://www.ehimeshiryo.com",
        "lat": 33.79061912,
        "lon": 132.80534062
    },
    {
        "企業名": "愛媛飼料産業株式会社 飼料畜産部",
        "事業内容": "飼料販売、鶏卵販売\n農場経営（養鶏、養豚）\n不動産の斡旋",
        "住所": "〒790-0962 松山市枝松5丁目8番30号",
        "HP": "https://www.ehimeshiryo.com",
        "lat": 33.82917021,
        "lon": 132.7862974
    },
    {
        "企業名": "株式会社乃万青果",
        "事業内容": "柑橘の集荷、撰果荷造、販売（みかん撰果場）\nその他の青果の集荷・販売\n柑橘を主とした加工品の製造・販売",
        "住所": "〒794-0074 愛媛県今治市神宮８４４−５",
        "HP": "https://www.kajuen.co.jp",
        "lat": 34.05265442,
        "lon": 132.95467049
    },
    {
        "企業名": "株式会社げんき本舗",
        "事業内容": "菓子・ドライフルーツ製造業",
        "住所": "〒798-0087 愛媛県宇和島市坂下津４０７−４９",
        "HP": "https://www.genki-honpo.com",
        "lat": 33.21692075,
        "lon": 132.55199644
    },
    {
        "企業名": "株式会社ジンノ",
        "事業内容": "海産物、ナッツ、菓子等の製造加工卸売業",
        "住所": "〒791-3131 愛媛県伊予郡松前町大字北川原2043番地2",
        "HP": "http://www.foods.jinno.org",
        "lat": 33.79889077,
        "lon": 132.69291553
    },
    {
        "企業名": "愛媛東部ヤクルト販売株式会社",
        "事業内容": " 乳酸菌飲料・発酵乳・果汁・清涼飲料・麺類・化粧品販売",
        "住所": "〒792-0022 愛媛県新居浜市徳常町８−４７",
        "HP": "https://ehimetobu-yakult.com",
        "lat": 33.96463844,
        "lon": 133.28114818
    },
    {
        "企業名": "株式会社アール・シー・フードパック",
        "事業内容": "缶詰、レトルトパウチ食品製造・販売",
        "住所": "〒797-0015　愛媛県西予市宇和町卯之町2丁目575番地",
        "HP": "https://www.rc-foodpack.co.jp",
        "lat": 33.36428587,
        "lon": 132.5086481
    },
    {
        "企業名": "株式会社ゆうぼく",
        "事業内容": "牧場運営 / データ管理\nはなが牛、はなが豚、他の精肉 / 加工\n精肉・加工した食肉の販売（BtoB / BtoC）",
        "住所": "〒797-0045　愛媛県西予市宇和町坂戸673-1",
        "HP": "https://yuboku.jp",
        "lat": 33.38630485,
        "lon": 132.50145634
    },
    {
        "企業名": "株式会社新栄食品",
        "事業内容": "麺類製造販売",
        "住所": "〒791-1112　愛媛県松山市南高井952",
        "HP": "https://shinei-shokuhin.com",
        "lat": 33.78943022,
        "lon": 132.80196872
    },
    {
        "企業名": "株式会社地域法人無茶々園",
        "事業内容": "農林水産物の加工及び販売\n\n柑橘（温州みかん、伊予柑、ポンカン、ネーブル、\n甘夏、河内晩柑、レモン等）、野菜（ジャガイモ、\nニンジン、タマネギ、カボチャ等）、柑橘加工品\n（柑橘ジュース、マーマレード、ゼリー等）、加工\n食品（かんそう野菜、かんそう果物、はちみつ等）、\n海産物、真珠、コスメ、雑貨　等",
        "住所": "〒797-0113　愛媛県西予市明浜町狩浜2-1350",
        "HP": "https://www.muchachaen.jp",
        "lat": 33.32050431,
        "lon": 132.46630553
    },
    {
        "企業名": "はぎの食品株式会社",
        "事業内容": "海産物、加工食品の製造・販売\n観光土産品の製造・販売\n各種OEM商品企画・製造",
        "住所": "〒791-3151 愛媛県伊予郡松前町東古泉３３３",
        "HP": "https://haginoshokuhin.co.jp",
        "lat": 33.7857126,
        "lon": 132.72210769
    },
    {
        "企業名": "株式会社世起",
        "事業内容": "和洋菓子の製造・販売\n\nお餅・げんこつ飴　ほか",
        "住所": "〒791-3131　愛媛県伊予郡松前町北川原1240－1",
        "HP": "https://www.seiki-net.co.jp",
        "lat": 33.79801598,
        "lon": 132.69608183
    },
    {
        "企業名": "北辰商事株式会社",
        "事業内容": "畜産用配合飼料の販売",
        "住所": "〒799-0101 愛媛県四国中央市川之江町４０６９",
        "HP": "https://hokusin-group.co.jp",
        "lat": 34.0089699,
        "lon": 133.57368676
    },
    {
        "企業名": "株式会社愛媛海産",
        "事業内容": "生鮮魚介類及び冷凍食品\n一夜千、漬魚その他海産物、そうざい、\n加工食品の製造販売",
        "住所": "〒794-0032 愛媛県今治市天保山町５丁目２−２",
        "HP": "https://www.ehimekaisan.co.jp",
        "lat": 34.06351274,
        "lon": 133.01471331
    },
    {
        "企業名": "株式会社城川ファクトリー　城川自然農場",
        "事業内容": "農産物加工、ハム・ソーセージ製造",
        "住所": "〒797-1717 愛媛県西予市城川町下相１１８８",
        "HP": "https://www.shirokawa.jp",
        "lat": 33.38160537,
        "lon": 132.74801321
    },
    {
        "企業名": "安高水産有限会社",
        "事業内容": "安全・安心の養殖真鯛を愛媛県から全国",
        "住所": "〒798-4342 愛媛県南宇和郡愛南町深浦１８８８",
        "HP": "http://www.yasutaka-suisan.co.jp",
        "lat": 32.94352726,
        "lon": 132.58883709
    },
    {
        "企業名": "有限会社石田製餡所　製餡部 (松山工場)",
        "事業内容": "製餡業、菓子製造業",
        "住所": "〒790-0877　愛媛県松山市錦町99番地",
        "HP": "https://ishidaseian.com",
        "lat": 33.83826025,
        "lon": 132.77613761
    },
    {
        "企業名": "株式会社おがた蒲鉾",
        "事業内容": "水産練製品製造・卸・販売",
        "住所": "〒797-0043　愛媛県西予市宇和町大江412番地1",
        "HP": "http://www.ogata-kamaboko.co.jp",
        "lat": 33.41117439,
        "lon": 132.51125227
    },
    {
        "企業名": "株式会社ナチュラリズム",
        "事業内容": "食肉製品製造業、冷凍食品製造業、タレ製造業、食肉加工業",
        "住所": "〒796-8038　愛媛県八幡浜市横平乙5-2",
        "HP": "https://www.maruwa-g.co.jp/about-naturalism",
        "lat": 33.40821178,
        "lon": 132.43154515
    },
    {
        "企業名": "有限会社南四国ファーム",
        "事業内容": "柑橘類全般、加工品、野菜、海産物等",
        "住所": "〒799-3751 愛媛県宇和島市吉田町沖村６１２−１",
        "HP": "https://kinahaiya.jp",
        "lat": 33.29077356,
        "lon": 132.53562009
    },
    {
        "企業名": "株式会社村田農場",
        "事業内容": "苗および種子の生産、育成\n苗および種子の販売\n米麦および各種野菜の耕作栽培ならびに販売\n農業用生産資材の生産、販売",
        "住所": "〒791-1112 愛媛県松山市南高井町５０８−２",
        "HP": "http://www.muratafarm.co.jp",
        "lat": 33.79099981,
        "lon": 132.82194214
    },
    {
        "企業名": "有限会社遠藤青汁",
        "事業内容": "青汁関連商品の販売及び商品開発",
        "住所": "〒790-0942 愛媛県松山市古川北4丁目9−25",
        "HP": "https://www.aoshiru.co.jp",
        "lat": 33.81008543,
        "lon": 132.76531114
    },
    {
        "企業名": "伊予蒲鉾株式会社",
        "事業内容": "水産練製品・冷凍食品の製造及び販売",
        "住所": "〒797-0042 愛媛県西予市宇和町瀬戸３９０−１",
        "HP": "http://www.iyokamaboko.co.jp",
        "lat": 33.41437681,
        "lon": 132.51153832
    },
    {
        "企業名": "株式会社志賀商店",
        "事業内容": "志賀商店はお豆のプロフェッショナル企業として\nお豆一筋に取り組んでまいりました",
        "住所": "〒799-1362 愛媛県西条市今在家921番地",
        "HP": "https://www.shiga-mame.co.jp",
        "lat": 33.92448868,
        "lon": 133.12281827
    },
    {
        "企業名": "株式会社さんきょう",
        "事業内容": "\t・鶏肉の卸\n・鶏肉加工品の生産及び販売",
        "住所": "〒791-8055 愛媛県松山市清住２丁目１０４０−３",
        "HP": "https://sankyo-net.jp",
        "lat": 33.85308177,
        "lon": 132.71907125
    },
    {
        "企業名": "愛媛水耕食品株式会社",
        "事業内容": "さまざまなバリェーションのもやし商品を開発し、また、自然食品のもやしを\nさらに安心かつおいしいもやしに育てることで、出来るだけ多くの人にもやしの味を再発見していただき、\n健康になっていただくことを、当社の目標としております",
        "住所": "〒791-1112 愛媛県松山市南高井町1972-3",
        "HP": "https://ehime-suikou.jp",
        "lat": 33.78298921,
        "lon": 132.80352433
    },
    {
        "企業名": "株式会社マエダ",
        "事業内容": "食品製造販売",
        "住所": "〒798-0027 愛媛県宇和島市柿原1059",
        "HP": "https://an-maeda.co.jp",
        "lat": 33.23684182,
        "lon": 132.58111891
    },
    {
        "企業名": "株式会社クライマーフーズ",
        "事業内容": "食肉一次加工（牛肉、豚肉、鶏肉スライス・挽肉）",
        "住所": "〒799-0722 愛媛県四国中央市土居町北野１２６２−１",
        "HP": "http://www.climber-foods.com",
        "lat": 33.95776306,
        "lon": 133.39523017
    },
    {
        "企業名": "株式会社デン・ジャパン",
        "事業内容": "衣付け加工品：豚カツ、チキンカツ、牛カツ、メンチカツ\n一次加工品：スライス、ミンチ、ダイスカット、ポーションカット\nマリネ商品：牛肉(味付け)、豚肉(味付け)、鶏肉(味付け)",
        "住所": "〒799-0722 愛媛県四国中央市土居町北野甲1267番地1",
        "HP": "https://denjapan.co.jp",
        "lat": 33.95751029,
        "lon": 133.39449969
    },
    {
        "企業名": "株式会社松南園",
        "事業内容": "抹茶、茶葉各種、粉末茶（パウダー）",
        "住所": "〒790-0963　愛媛県松山市小坂5丁目13-5",
        "HP": "https://www.shounanen.co.jp",
        "lat": 33.82583158,
        "lon": 132.78146174
    },
    {
        "企業名": "株式会社エポラ",
        "事業内容": "化粧品、健康食品などの企画・製造・販売",
        "住所": "〒791-1102 愛媛県松山市来住町1383番1",
        "HP": "https://www.epauler.jp",
        "lat": 33.8074811,
        "lon": 132.79554659
    },
    {
        "企業名": "株式会社パンステージメリー",
        "事業内容": "パン屋",
        "住所": "〒791-1116 愛媛県松山市南土居町５４０−１",
        "HP": "http://www.panstage-merry.jp",
        "lat": 33.79969572,
        "lon": 132.79624672
    },
    {
        "企業名": "ベストデリカ有限会社",
        "事業内容": "冷凍食品の研究開発、製造、販売",
        "住所": "〒799-0101 愛媛県四国中央市川之江町2529-203",
        "HP": "http://www.bestdelica.co.jp",
        "lat": 34.02044045,
        "lon": 133.57426433
    },
    {
        "企業名": "株式会社グリーンヒル",
        "事業内容": "農産物の生産、運搬、加工、貯蔵又は販売\n　農産物加工品の製造及び販売",
        "住所": "〒797-1211 愛媛県西予市野村町阿下６−３８０",
        "HP": "http://www.green-hill.co.jp",
        "lat": 33.38469888,
        "lon": 132.65032295
    },
    {
        "企業名": "株式会社昆布森",
        "事業内容": "海藻加工業",
        "住所": "〒791-3132 愛媛県伊予郡松前町西高柳251番地",
        "HP": "https://www.konbumori.co.jp",
        "lat": 33.80394347,
        "lon": 132.71621611
    },
    {
        "企業名": "株式会社サンマルシェ",
        "事業内容": "農産物生産・販売、生鮮食品販売、業務配送、転送事業、委託販売事業、イベント出展事業、タオルOEM企画販売、生鮮食品仕入れ代行事業、ノベルティ製品企画",
        "住所": "〒790-0911 愛媛県松山市桑原１丁目5-31",
        "HP": "http://sunmarche.info",
        "lat": 33.83653874,
        "lon": 132.78934731
    },
    {
        "企業名": "株式会社守谷漬物",
        "事業内容": "漬物製造業\n※地元特産の原料を使った浅漬加工",
        "住所": "〒792-0050 愛媛県新居浜市萩生605-2",
        "HP": "https://moriyatukemono.com",
        "lat": 33.92985627,
        "lon": 133.27394524
    },
    {
        "企業名": "株式会社いわぎ物産センター",
        "事業内容": "レモン",
        "住所": "〒794-2410  愛媛県越智郡上島町岩城2586",
        "HP": "https://www.aoilemon.com",
        "lat": 34.24505504,
        "lon": 133.13238302
    },
    {
        "企業名": "有限会社宇都宮物産",
        "事業内容": "みかん",
        "住所": "〒797-0045　愛媛県西予市宇和町坂戸６８３番地",
        "HP": "https://maruwa-fruit.co.jp",
        "lat": 33.39583161,
        "lon": 132.50813334
    },
    {
        "企業名": "株式会社ＩＳフーズ",
        "事業内容": "水産物の製造販売",
        "住所": "〒790-0822　愛媛県松山市高砂町2-1-1",
        "HP": "https://www.isfoods.co.jp",
        "lat": 33.84941389,
        "lon": 132.76238075
    },
    {
        "企業名": "株式会社後藤商店",
        "事業内容": "味噌・おかずみそ・味噌加工品・こうじ類の製造・販売業務\nメインブランド「松山みそ」を中心に愛媛県の伝統的な「麦みそ」「合わせみそ」\nを製造・販売しています。",
        "住所": "〒790-0932　愛媛県松山市東石井４丁目１７－２５",
        "HP": "http://gotoshouten.co.jp/",
        "lat": 33.81351342,
        "lon": 132.78016473
    },
    {
        "企業名": "株式会社松山給食センター",
        "事業内容": "給食弁当・仕出・食堂委託",
        "住所": "〒790-0054 愛媛県松山市空港通２丁目６−２４",
        "HP": "https://shiki-deli.com",
        "lat": 33.82800745,
        "lon": 132.73946342
    },
    {
        "企業名": "株式会社中田水産",
        "事業内容": "水産業・養殖・水産物加工・販売",
        "住所": "〒796－0312　愛媛県西宇和郡伊方町川永田536－1",
        "HP": "https://nakata-suisan.com",
        "lat": 33.48205701,
        "lon": 132.34703503
    },
    {
        "企業名": "株式会社みさき果樹園",
        "事業内容": "柑橘全般",
        "住所": "〒796-0201 愛媛県八幡浜市保内町川之石７−６２８−１",
        "HP": "http://www.misaki-kajuen.com",
        "lat": 33.4709119,
        "lon": 132.381052
    },
    {
        "企業名": "四国海苔株式会社",
        "事業内容": "味付のり、焼のり、青のり粉の製造販売",
        "住所": "〒793-0027 愛媛県西条市朔日市428",
        "HP": "https://shikoku-nori.co.jp",
        "lat": 33.92033266,
        "lon": 133.18756322
    },
    {
        "企業名": "株式会社魚貞蒲鉾店",
        "事業内容": "魚肉練製品の製造、販売",
        "住所": "〒７９４－００１５　愛媛県今治市常盤町１丁目４－１２",
        "HP": "http://uosada.co.jp",
        "lat": 34.06841692,
        "lon": 133.00411769
    },
    {
        "企業名": "有限会社ワールド・ファーマーズ",
        "事業内容": "みかん",
        "住所": "〒799-3752 愛媛県宇和島市吉田町河内甲1471",
        "HP": "http://world-farmers.com",
        "lat": 33.28796478,
        "lon": 132.50049819
    },
    {
        "企業名": "株式会社よしの屋",
        "事業内容": "海産珍味製造卸",
        "住所": "〒791-3131 愛媛県伊予郡松前町北川原８８６−１",
        "HP": "https://yoshinoya-foods.localinfo.jp",
        "lat": 33.79886319,
        "lon": 132.69914539
    },
    {
        "企業名": "土居商店有限会社",
        "事業内容": "配合飼料販売配送\n牧草流通販売",
        "住所": "〒797-0015　愛媛県西予市宇和町卯之町5丁目247-1",
        "HP": "https://www.doi-shoten.com",
        "lat": 33.35794004,
        "lon": 132.52415225
    },
    {
        "企業名": "株式会社上野昆布",
        "事業内容": "海産物卸、農産物卸、\n食品製造卸",
        "住所": "〒791-8026 愛媛県松山市山西町８９９",
        "HP": "http://www.uenokonbu.com",
        "lat": 33.85292073,
        "lon": 132.72188753
    },
    {
        "企業名": "かまぼこの村上有限会社",
        "事業内容": "かまぼこ作り",
        "住所": "〒794-2204 愛媛県今治市宮窪町宮窪2784",
        "HP": "https://kamabokonomurakami.co.jp",
        "lat": 34.17383817,
        "lon": 133.07665947
    },
    {
        "企業名": "株式会社小林果園",
        "事業内容": "・柑橘の生産と販売\n　・柑橘を原材料とするジュース等の販売\n　・柑橘類等の仕入れ、貯蔵及び販売\n　・冷凍みかんの販売\n　・肥料等農業資材等の販売\n　・農作業の受託",
        "住所": "〒796-8038　愛媛県八幡浜市横平乙112番地5",
        "HP": "https://himeichi.net",
        "lat": 33.41796898,
        "lon": 132.43044507
    },
    {
        "企業名": "有限会社篠﨑ベーカリー",
        "事業内容": "パン作り",
        "住所": "〒799-3114　愛媛県伊予市灘町137",
        "HP": "http://shinopan.info",
        "lat": 33.75891183,
        "lon": 132.70173173
    },
    {
        "企業名": "二宮醸造株式会社",
        "事業内容": "しょうゆ・みそ・その他調味料の製造加工販売",
        "住所": "〒791-1201 愛媛県上浮穴郡久万高原町久万４０８",
        "HP": "https://www.ninomiya-jyozo.jp",
        "lat": 33.65889912,
        "lon": 132.90149829
    },
    {
        "企業名": "マルヤス食品株式会社",
        "事業内容": "こんにゃく製品、ゼリーなど各種菓子製品、惣菜（レトルト加工）類などの製造販売",
        "住所": "〒798-4131　愛媛県南宇和郡愛南町城辺甲2277",
        "HP": "https://maruyasu-foods.com",
        "lat": 32.9611636,
        "lon": 132.57723997
    },
    {
        "企業名": "モリキヨ水産有限会社",
        "事業内容": "水産加工業",
        "住所": "〒799-2434 愛媛県松山市柳原５１０−４",
        "HP": "http://morikiyo.net",
        "lat": 33.95574068,
        "lon": 132.76991244
    },
    {
        "企業名": "ケーオー醗酵株式会社",
        "事業内容": "醗酵調味料製造",
        "住所": "〒799-0712　愛媛県四国中央市土居町入野856-1",
        "HP": "http://www.ko-hakko.com",
        "lat": 33.95724917,
        "lon": 133.42544938
    },
    {
        "企業名": "株式会社サンアイ東予工場",
        "事業内容": "食肉加工業・販売",
        "住所": "〒794-0823 愛媛県今治市郷本町3丁目1-8",
        "HP": "https://sanaitoyokojyo.jp",
        "lat": 34.04749641,
        "lon": 132.99196336
    },
    {
        "企業名": "株式会社媛囃子",
        "事業内容": "媛囃子は、愛媛県産のはだか麦や栗を主原料とし、\n原料を活かして豊かな香味を引き出すことを目指した\n酒造りを心がけております",
        "住所": "〒797-1716 愛媛県西予市城川町魚成4598",
        "HP": "https://himebayashi.jp",
        "lat": 33.37634132,
        "lon": 132.71494135
    },
    {
        "企業名": "株式会社いろは屋",
        "事業内容": "パン製造販売",
        "住所": "〒790-0823 愛媛県松山市清水町３丁目７０−２",
        "HP": "https://www.irohaya.co.jp",
        "lat": 33.85249974,
        "lon": 132.76851633
    },
    {
        "企業名": "クロスタニン四国販売株式会社",
        "事業内容": "健康食品及び化粧品の卸,小売",
        "住所": "〒791-8013 愛媛県松山市山越6丁目7-25",
        "HP": "https://chlostanin-shikoku.net",
        "lat": 33.8576709,
        "lon": 132.75187882
    },
    {
        "企業名": "海幸水産有限会社",
        "事業内容": "魚類の養殖及び販売",
        "住所": "〒796-0914 愛媛県西予市三瓶町皆江２１−２",
        "HP": "https://kaikousuisan.com",
        "lat": 33.34577651,
        "lon": 132.39302749
    },
    {
        "企業名": "檜垣蒲鉾有限会社",
        "事業内容": "水産加工（蒲鉾製造・販売）",
        "住所": "〒794-0044　愛媛県今治市蔵敷町1丁目5-3",
        "HP": "http://www.higakikamaboko.com",
        "lat": 34.05893398,
        "lon": 132.99839657
    }
]
