[
    {
        "企業名": "朝日共販株式会社",
        "事業内容": "水産食料品の製造・販売 ちりめん、しらす、カニ、海藻",
        "住所": "〒791-8042 愛媛県松山市南吉田町1497-1",
        "HP": "http://www.shirasu.jp/",
        "lat": 33.82760428,
        "lon": 132.7097334
    },
    {
        "企業名": "株式会社えひめ飲料",
        "事業内容": "みかん果汁加工事業",
        "住所": "〒791-8006 愛媛県松山市安城寺町240-1",
        "HP": "http://www.ehime-inryo.co.jp/",
        "lat": 33.87291344,
        "lon": 132.74344326
    },
    {
        "企業名": "株式会社キシモト",
        "事業内容": "干物製品の製造と卸売り",
        "住所": "〒791-0311 愛媛県東温市則之内甲693",
        "HP": "http://www.kishimoto-web.com/",
        "lat": 33.82407857884668,
        "lon": 132.95485326967327
    },
    {
        "企業名": "キョクヨーフーズ株式会社",
        "事業内容": "カニ風味かまぼこ及び水産調理品の製造",
        "住所": "〒798-2102 愛媛県北宇和郡松野町延野々830番地",
        "HP": "https://www.kyokuyofoods.co.jp/",
        "lat": 33.2402984,
        "lon": 132.71218719
    },
    {
        "企業名": "株式会社小池養蜂園",
        "事業内容": "養蜂と蜜の生産",
        "住所": "〒799-2662 愛媛県松山市太山寺町1852",
        "HP": "http://koikeyouhou.com/",
        "lat": 33.88449476,
        "lon": 132.72150403
    },
    {
        "企業名": "四国乳業株式会社",
        "事業内容": "乳製品",
        "住所": "〒791-0397 愛媛県東温市南方955-1",
        "HP": "https://www.rakuren.co.jp/",
        "lat": 33.79475399,
        "lon": 132.90199864
    },
    {
        "企業名": "有限会社進藤重晴商店",
        "事業内容": "柑橘外皮を使用した砂糖漬菓子（ピール）生姜砂糖漬、しょうが湯などの製造・販売",
        "住所": "〒799-0431 愛媛県四国中央市寒川町3797-1",
        "HP": "http://www.miyone.com/",
        "lat": 33.96781374,
        "lon": 133.50354488
    },
    {
        "企業名": "仙味エキス株式会社",
        "事業内容": "エキス調味料及び機能性食品素材の製造・販売",
        "住所": "〒795-0021 愛媛県大洲市平野町野田779-2",
        "HP": "http://www.senmiekisu.co.jp/",
        "lat": 33.47572871,
        "lon": 132.5042463
    },
    {
        "企業名": "株式会社中温",
        "事業内容": "主に農産物加工、瓶詰・缶詰・袋詰等製造、有機JAS対応微生物資材製造販売、栗渋ポリフェノール",
        "住所": "〒790-0036 愛媛県松山市小栗1-2-28",
        "HP": "https://www.chuon.co.jp/",
        "lat": 33.8275389,
        "lon": 132.763125
    },
    {
        "企業名": "日本食研ホールディングス株式会社",
        "事業内容": "ブレンド調味料及び加工調理食品の製造・販売。研究開発、持株会社としてのグループ戦略立案及び各種事業の統括管理",
        "住所": "〒799-1582 愛媛県今治市富田新港1-3",
        "HP": "https://www.nihonshokken.co.jp/",
        "lat": 34.04738768,
        "lon": 133.02945851
    },
    {
        "企業名": "八水蒲鉾株式会社",
        "事業内容": "魚肉練り製品・惣菜・水産加工品の製造販売",
        "住所": "〒796-0201 愛媛県八幡浜市保内町川之石1-242-4",
        "HP": "https://www.hassui.jp/",
        "lat": 33.48123931,
        "lon": 132.39736458
    },
    {
        "企業名": "株式会社マエダ",
        "事業内容": "パックご飯/雑穀の製造販売",
        "住所": "〒798-0027 愛媛県宇和島市柿原甲1059",
        "HP": "http://www.an-maeda.co.jp/",
        "lat": 33.23684182,
        "lon": 132.58111891
    },
    {
        "企業名": "有限会社松下海産",
        "事業内容": "水産物の加工・販売",
        "住所": "〒797-0112 愛媛県西予市明浜町渡江1097",
        "HP": "なし",
        "lat": 33.31576097,
        "lon": 132.4824988
    },
    {
        "企業名": "マルトモ株式会社",
        "事業内容": "花かつお、かつおパック、削りぶし、煮干し、だしの素、めんつゆ、チルド製品（魚介加工品）、ご贈答品詰め合わせ、サプリメント、ペットフード",
        "住所": "〒799-3192 愛媛県伊予市米湊1696番地",
        "HP": "http://www.marutomo.co.jp/",
        "lat": 33.75380399,
        "lon": 132.698496
    },
    {
        "企業名": "有限会社　マキフーズ",
        "事業内容": "惣菜小売り、飲食業、惣菜製造業",
        "住所": "〒791-0216 愛媛県東温市野田3-8-6",
        "HP": "https://makifoods.jp/",
        "lat": 33.79437993,
        "lon": 132.83525781
    },
    {
        "企業名": "ニッシン･グルメビーフ株式会社　松山第一工場",
        "事業内容": "食肉の生産加工から販売",
        "住所": "〒799-2661 愛媛県松山市勝岡町1163番13",
        "HP": "http://www.n-g-beef.co.jp/",
        "lat": 33.90363813,
        "lon": 132.72554293
    },
    {
        "企業名": "ニッシン･グルメビーフ株式会社　松山第二工場",
        "事業内容": "食肉の生産加工から販売",
        "住所": "〒799-2661 愛媛県松山市勝岡町262番",
        "HP": "http://www.n-g-beef.co.jp/",
        "lat": 33.902191,
        "lon": 132.72451526
    },
    {
        "企業名": "愛興食品株式会社",
        "事業内容": "冷凍食品、食肉加工品、惣菜半製品",
        "住所": "〒791-8015 愛媛県松山市中央２丁目４５",
        "HP": "http://aikofoods.co.jp/",
        "lat": 33.85490994,
        "lon": 132.74584882
    },
    {
        "企業名": "有限会社　石丸弥蔵商店",
        "事業内容": "海産乾物問屋",
        "住所": "〒791-8018 愛媛県松山市問屋町1−14",
        "HP": "https://ishimaruyazo.com/",
        "lat": 33.86277305,
        "lon": 132.75050388
    },
    {
        "企業名": "株式会社三幸松山",
        "事業内容": "海産物・農産物・加工食品の製造・販売",
        "住所": "〒799-2655 愛媛県松山市馬木町955-1",
        "HP": "https://w-sanko.co.jp/",
        "lat": 33.89909417,
        "lon": 132.73778018
    }
]
